[{"id": 1367, "elv": 58.0, "long": -3.48284, "lat": 50.3989, "name": "BERRY HEAD"}, {"id": 534, "elv": 54.0, "long": -1.31722, "lat": 53.8687, "name": "BRAMHAM"}, {"id": 61915, "elv": 5.0, "long": 1.45667, "lat": 52.6963, "name": "BURE MARSHES NNR"}, {"id": 24102, "elv": 119.0, "long": -1.53498, "lat": 52.4241, "name": "COVENTRY: COUNDON"}, {"id": 61973, "elv": 340.0, "long": -1.73432, "lat": 53.2614, "name": "DERBYSHIRE DALES NNR"}, {"id": 61843, "elv": 23.0, "long": 0.49127, "lat": 52.8337, "name": "DERSINGHAM BOG NNR"}, {"id": 918, "elv": 3.0, "long": -5.43859, "lat": 56.4505, "name": "DUNSTAFFNAGE"}, {"id": 744, "elv": 33.0, "long": 0.45006, "lat": 51.287, "name": "EAST MALLING"}, {"id": 56962, "elv": 1.0, "long": -1.16679, "lat": 50.8358, "name": "GOSPORT: FLEETLANDS"}, {"id": 61937, "elv": 376.0, "long": -2.36708, "lat": 54.1796, "name": "INGLEBOROUGH NNR"}, {"id": 723, "elv": 6.0, "long": -0.29276, "lat": 51.4813, "name": "KEW GARDENS"}, {"id": 48, "elv": 103.0, "long": -3.92063, "lat": 58.2306, "name": "KINBRACE: HATCHERY"}, {"id": 61846, "elv": 79.0, "long": -1.91645, "lat": 50.9684, "name": "MARTIN DOWN NNR"}, {"id": 456, "elv": 41.0, "long": -0.23532, "lat": 52.4012, "name": "MONKS WOOD"}, {"id": 61948, "elv": 102.0, "long": -2.24066, "lat": 52.7128, "name": "MOTTEY MEADOWS NNR"}, {"id": 57247, "elv": 5.0, "long": -1.39747, "lat": 50.7762, "name": "NORTH SOLENT NNR"}, {"id": 1352, "elv": 177.0, "long": -3.90277, "lat": 50.7682, "name": "NORTH WYKE"}, {"id": 61847, "elv": 197.0, "long": -1.08054, "lat": 50.9823, "name": "OLD WINCHESTER HILL NNR"}, {"id": 1125, "elv": 110.0, "long": -2.17709, "lat": 53.6085, "name": "ROCHDALE"}, {"id": 62034, "elv": 6.0, "long": -3.02315, "lat": 54.2363, "name": "ROUDSEA WOOD AND MOSSES NNR"}, {"id": 982, "elv": 277.0, "long": -3.87409, "lat": 55.8615, "name": "SALSBURGH"}, {"id": 25727, "elv": 26.0, "long": -1.39361, "lat": 50.8918, "name": "SOUTHAMPTON: OCEANOGRAPHY CENTRE"}, {"id": 554, "elv": 43.0, "long": -1.24961, "lat": 52.8361, "name": "SUTTON BONINGTON"}, {"id": 61974, "elv": 66.0, "long": -0.91982, "lat": 53.0169, "name": "SYERSTON"}, {"id": 57250, "elv": 90.0, "long": -5.19827, "lat": 50.0354, "name": "THE LIZARD NNR"}, {"id": 61949, "elv": 89.0, "long": -2.75489, "lat": 52.9252, "name": "WHIXALL MOSSES NNR"}, {"id": 17224, "elv": 80.0, "long": -1.58206, "lat": 50.6623, "name": "WIGHT: NEEDLES OLD BATTERY"}, {"id": 719, "elv": 38.0, "long": -0.47478, "lat": 51.3103, "name": "WISLEY"}, {"id": 61844, "elv": 58.0, "long": -2.3476, "lat": 52.3842, "name": "WYRE FOREST NNR"}, {"id": 61938, "elv": 122.0, "long": -3.71556, "lat": 50.5918, "name": "YARNER WOOD NNR"}]